City_ID,City,Country,Max Temp,Current Description,Lat,Lng,Hotel Name
3,Bonavista,CA,37.0,light rain,48.6499,-53.1147,Abbott's Bed & Breakfast
4,Mataura,NZ,51.78,broken clouds,-46.1927,168.8643,Ellie's Villa
5,Ribeira Grande,PT,53.6,scattered clouds,38.5167,-28.7,Quinta da Meia Eira
6,Kapaa,US,68.0,broken clouds,22.0752,-159.319,Sheraton Kauai Resort at Coconut Beach
8,Hermanus,ZA,64.0,clear sky,-34.4187,19.2345,Misty Waves Boutique Hotel
9,Hobart,AU,57.99,light intensity drizzle,-42.8794,147.3294,St Ives Hobart Accommodation Tasmania
12,Busselton,AU,51.01,clear sky,-33.65,115.3333,Observatory Guest House
16,Hofn,IS,33.8,overcast clouds,64.2539,-15.2082,Hótel Höfn
17,Namibe,AO,73.27,overcast clouds,-15.1961,12.1522,Hotel Chik Chik Namibe
18,Nangomba,TZ,73.44,scattered clouds,-10.9,38.5,
21,Tanout,NE,69.21,clear sky,14.9709,8.8879,
22,Port Elizabeth,ZA,68.0,clear sky,-33.918,25.5701,39 On Nile Guest House
23,Ushuaia,AR,55.4,few clouds,-54.8,-68.3,Albatros Hotel
29,Marfino,RU,26.01,snow,55.7028,37.3822,ARK guest house
30,Chenzhou,CN,56.7,overcast clouds,25.8,113.0333,Thank Inn Chain Hotel hunan chenzhou beihu district wuling square
31,Port Hardy,CA,41.0,broken clouds,50.6996,-127.4199,Airport Inn
32,Albany,US,32.0,light snow,42.6001,-73.9662,
33,Port Lincoln,AU,65.23,overcast clouds,-34.7333,135.8667,Port Lincoln Hotel
34,Punta Arenas,CL,64.4,broken clouds,-53.15,-70.9167,Hotel Dreams Del Estrecho
37,Kinsale,IE,46.99,broken clouds,51.7075,-8.5306,Actons Hotel Kinsale
40,Bluff,NZ,52.29,overcast clouds,-46.6,168.3333,Bluff Homestead - Guesthouse & Campervan Park
41,Kutum,SD,68.74,scattered clouds,14.2,24.6667,Dibbo areaمنطقة دبو
47,Xuddur,SO,74.3,scattered clouds,4.1213,43.8894,Banjanay Hotel
48,Lebu,CL,64.18,clear sky,-37.6167,-73.65,Hostal Las Lilas
49,Port Alfred,ZA,69.01,clear sky,-33.5906,26.891,The Halyards Hotel
50,Yining,CN,53.47,overcast clouds,29.0361,114.5636,Xiushui Hotel
52,Tottori,JP,34.11,clear sky,35.5,134.2333,Hotel Monarque Tottori
56,Tasiilaq,GL,27.79,light snow,65.6145,-37.6368,The Red House
57,Cape Town,ZA,71.01,few clouds,-33.9258,18.4232,"Radisson Blu Hotel Waterfront, Cape Town"
59,New Norfolk,AU,57.99,overcast clouds,-42.7826,147.0587,The Shingles Riverside Cottages
61,Naze,JP,51.42,clear sky,28.3667,129.4833,奄美ポートタワーホテル
65,Saint George,US,66.0,clear sky,37.1041,-113.5841,Best Western Plus Abbey Inn
66,Vila Franca Do Campo,PT,53.6,few clouds,37.7167,-25.4333,Pestana Bahia Praia
67,Bredasdorp,ZA,64.4,clear sky,-34.5322,20.0403,Bredasdorp Country Manor
68,Hamilton,US,36.0,few clouds,39.1834,-84.5333,Six Acres Bed & Breakfast
69,Lagoa,PT,54.18,clear sky,39.05,-27.9833,Casa Das Faias
72,Ngerengere,TZ,73.87,broken clouds,-6.75,38.1167,
75,Pandhana,IN,67.21,clear sky,21.7,76.2167,ठा. करण सिंह चौहान
83,Victoria,HK,64.0,clear sky,22.2855,114.1577,Mini Hotel Central
88,Asau,RO,37.4,light rain,46.4333,26.4,Casa Mika Ciobanus
90,Magadi,IN,64.4,few clouds,12.9667,77.2333,Mindri of Magadi
91,Katsuura,JP,39.2,scattered clouds,35.1333,140.3,Katsuura Hotel Mikazuki
92,Shu,KZ,30.0,broken clouds,43.5983,73.7614,Shyngyzkhan
96,Waipawa,NZ,60.01,broken clouds,-41.4122,175.5153,Tora Coastal Walk
99,Dubbo,AU,62.6,few clouds,-32.25,148.6167,Comfort Inn Blue Lagoon
100,Lincoln,US,48.0,broken clouds,40.8,-96.667,Courtyard by Marriott Lincoln Downtown/Haymarket
101,Turka,UA,43.0,overcast clouds,49.1541,23.0297,Turkivsʹkyy Kar'yer
103,Whitianga,NZ,71.01,scattered clouds,-36.8333,175.7,Beachside Resort Whitianga
106,Boyolangu,ID,74.8,overcast clouds,-8.1181,111.8935,Yos ega cv
114,Fortuna,US,51.01,few clouds,40.5982,-124.1573,Super 8 by Wyndham Fortuna
116,Klaksvik,FO,30.2,few clouds,62.2266,-6.5889999999999995,Airbnb rooms
117,Goderich,CA,30.2,clear sky,43.7501,-81.7165,Harmony Inn
118,Almaznyy,RU,46.4,mist,48.0448,40.045,
120,Half Moon Bay,US,57.2,clear sky,37.4636,-122.4286,"The Ritz-Carlton, Half Moon Bay"
121,Geraldton,AU,71.6,scattered clouds,-28.7667,114.6,Broadwater Mariner Resort
122,Jamestown,US,30.99,clear sky,42.097,-79.2353,Hampton Inn & Suites Jamestown
126,Dembi Dolo,ET,67.68,few clouds,8.5333,34.8,Sayo Plaza
127,Weligama,LK,75.0,broken clouds,5.9667,80.4167,Weligama Bay Resort
129,Saint Anthony,US,35.6,clear sky,45.0205,-93.21799999999999,Holiday Inn Express Roseville-St. Paul
130,Sitka,US,35.6,moderate rain,57.0531,-135.33,Westmark Sitka
131,Northam,GB,46.99,clear sky,51.0333,-4.2167,Durrant House Hotel
133,Saldanha,ZA,68.0,clear sky,-33.0117,17.9442,Blue Bay Lodge
136,Awjilah,LY,57.92,clear sky,29.1081,21.2869,
138,Lompoc,US,62.6,clear sky,34.6391,-120.4579,Holiday Inn Express Lompoc
139,Esperance,AU,59.0,overcast clouds,-33.8667,121.9,Hospitality Esperance
142,Portland,US,43.0,overcast clouds,45.5234,-122.6762,Embassy Suites by Hilton Portland Downtown
146,Bandarbeyla,SO,73.08,clear sky,9.4942,50.8122,JABIR HOTEL
147,Narwar,IN,61.99,overcast clouds,25.65,77.9,हनुमान मन्दिर
148,Sao Filipe,CV,72.63,broken clouds,14.8961,-24.4956,Tortuga B&B
151,Stornoway,GB,37.4,clear sky,58.2093,-6.3865,Caladh Inn
158,Havre-Saint-Pierre,CA,30.2,light snow,50.2334,-63.5986,Auberge Niapiskau
159,Daitari,IN,56.39,clear sky,21.1,85.75,
160,Shimoda,JP,34.0,clear sky,34.6667,138.95,Shimoda Tokyu Hotel
162,Codrington,AU,57.4,overcast clouds,-38.2667,141.9667,Codrington Gardens Bed And Breakfast
164,Shelburne,CA,30.0,clear sky,44.0787,-80.2041,The Retreat at the Farm
165,Las Vegas,US,69.8,clear sky,36.175,-115.1372,Plaza Hotel & Casino
168,Robe,AU,62.82,overcast clouds,-37.1833,139.75,Harbour View Motel
170,Soc Trang,VN,71.6,few clouds,9.6033,105.98,Phu Qui Hotel
171,Fontem,CM,74.14,clear sky,5.4685,9.8818,Vista Palace Hotel
175,Joshimath,IN,40.55,overcast clouds,30.5667,79.5667,Shivalik Camps & Resort
178,Zaterechnyy,RU,44.4,overcast clouds,44.7931,45.2097,
182,Bar Harbor,US,36.0,overcast clouds,44.3876,-68.2039,Atlantic Oceanside Hotel & Event Center
183,Avera,US,53.6,clear sky,33.194,-82.5271,
184,Kidal,ML,73.17,clear sky,18.4411,1.4078,
185,Ancud,CL,71.6,clear sky,-41.8697,-73.8203,Hotel Arena Gruesa
189,Sept-Iles,CA,28.4,light snow,50.2001,-66.3821,Comfort Inn
190,Bengbu,CN,40.48,clear sky,32.9408,117.3608,Howard Johnson Nanshan Plaza
191,Komsomolskiy,UZ,37.4,mist,40.4272,71.7189,Ikathouse
193,Ponta Do Sol,PT,55.0,broken clouds,32.6667,-17.1,Hotel do Campo
196,Ormoz,SI,51.8,few clouds,46.4114,16.1544,Turistična kmetija Sonja Ozmec
198,Zlobin,HR,55.4,broken clouds,45.2924,14.6541,Hotel Bitoraj Fuzine
205,Darnah,LY,59.14,clear sky,32.766999999999996,22.6367,فندق الفردوس
209,Gualeguaychu,AR,73.0,overcast clouds,-33.0094,-58.5172,Hotel Los Angeles
210,Gat,IL,64.99,broken clouds,31.61,34.7642,OlusHome
211,Suez,EG,66.25,overcast clouds,29.9737,32.5263,Green House
215,Torbay,CA,39.0,light rain,47.6666,-52.7314,Gallows Cove
216,Skerries,IE,46.0,light rain,53.5828,-6.1083,The Redbank Guesthouse
218,Huarmey,PE,74.89,broken clouds,-10.0681,-78.1522,Hotel Miramar
220,Vestmannaeyjar,IS,38.8,overcast clouds,63.4427,-20.2734,Glamping & Camping
222,Gerash,IR,50.0,clear sky,27.6652,54.1371,Sa'adat House
223,Serenje,ZM,63.72,overcast clouds,-13.2325,30.2352,SERENJE SOCH INN
224,Ravar,IR,47.43,clear sky,31.2656,56.8055,computertik
225,Saint-Augustin,CA,33.26,moderate rain,51.226000000000006,-58.6502,
229,Kodiak,US,28.4,clear sky,57.79,-152.4072,Best Western Kodiak Inn And Convention Center
233,Muros,ES,55.99,light rain,42.7762,-9.0603,Apartment Av. Castelao
234,Kiama,AU,64.0,clear sky,-34.6833,150.8667,The Sebel Kiama Harbourside
236,North Bend,US,46.99,broken clouds,43.4065,-124.2243,Red Lion Hotel Coos Bay
239,Lasa,IT,37.99,mist,46.6166,10.7002,Pension Feldgärtenhof
242,Fallon,US,46.4,broken clouds,39.4735,-118.7774,Best Western Fallon Inn & Suites
245,Murray Bridge,AU,66.99,light rain,-35.1167,139.2667,Balcony On Sixth Lodge
247,Miami,US,68.0,clear sky,25.7743,-80.1937,Miami Sun Hotel
250,Gazanjyk,TM,49.59,overcast clouds,39.2446,55.5154,Railway motel
251,Veraval,IN,69.89,clear sky,20.9,70.3667,Lords Inn Somnath
252,Broome,US,27.0,mist,42.2506,-75.833,Chenango Valley State Park
253,Kruisfontein,ZA,71.01,clear sky,-34.0033,24.7314,Oyster Bay House Rental
254,Normal,US,35.6,clear sky,40.5142,-88.9906,Holiday Inn Express & Suites Bloomington - Normal
260,Bardiyah,LY,59.04,clear sky,31.7561,25.0865,بورتو بردية
263,Airai,TL,61.29,overcast clouds,-8.9266,125.4092,Juvinal Martin
264,Bethel,US,34.0,overcast clouds,41.3712,-73.414,Courtyard by Marriott Danbury
265,Brentwood,US,37.0,overcast clouds,40.7812,-73.2462,Holiday Inn Express Hauppauge-Long Island
266,Luxor,EG,69.8,broken clouds,25.6989,32.6421,Iberotel Luxor
267,Mantua,IT,44.01,broken clouds,45.1667,10.7833,Hotel la Favorita
268,San Quintin,MX,64.76,broken clouds,30.4833,-115.95,Old Mill Hotel
269,Morro Bay,US,61.0,few clouds,35.3658,-120.8499,Inn at Morro Bay
272,Kyabram,AU,63.0,scattered clouds,-36.3167,145.05,Kyabram Motor Inn
273,Chuy,UY,70.32,moderate rain,-33.6971,-53.4616,Nuevo Hotel Plaza
275,Jilib,SO,71.53,overcast clouds,0.4883,42.7854,
277,Carbonia,IT,55.4,clear sky,39.1672,8.5222,Lu 'Hotel
281,Suciu De Sus,RO,43.0,broken clouds,47.4333,24.0333,Pensiunea Popasu'
283,Hasaki,JP,33.8,scattered clouds,35.7333,140.8333,Inubosaki Kanko Hotel
288,Kaitangata,NZ,54.0,broken clouds,-46.2817,169.8464,Kaitangata Motor Camp
290,Pyay,MM,62.42,clear sky,18.8167,95.2167,Shwe Pyi Thar
292,Sorland,NO,32.0,few clouds,67.667,12.6934,Sjybrygga fiskecamp
296,Barcelona,ES,60.01,clear sky,41.3888,2.1590000000000003,Axel Hotel Barcelona
298,Lilongwe,MW,70.36,overcast clouds,-13.9669,33.7873,Spendwise furnished apartments.
299,Vad,RU,27.68,snow,55.5301,44.2114,Riv'yera Rezort Otel'
302,Vestmanna,FO,30.2,few clouds,62.1564,-7.1664,Budget Guesthouse Borgustova
308,Roma,US,28.4,overcast clouds,43.2128,-75.4557,Wingate By Wyndham Rome
311,Semnan,IR,43.75,broken clouds,35.5729,53.3971,Semnan Tourist Hotel
312,Broken Hill,AU,71.6,overcast clouds,-31.95,141.4333,Royal Exchange Hotel
317,Tezu,IN,61.45,scattered clouds,27.9167,96.1667,Circuit House
319,Los Llanos De Aridane,ES,64.4,broken clouds,28.6585,-17.9182,Valle Aridane
320,Ruteng,ID,63.28,light rain,-8.6136,120.4721,Hotel FX72 Ruteng
322,Dunedin,NZ,55.99,overcast clouds,-45.8742,170.5036,Scenic Hotel Southern Cross
323,Cradock,ZA,74.39,few clouds,-32.1642,25.6192,Die Hoekhuis
324,Balkanabat,TM,50.65,overcast clouds,39.5108,54.3671,Nebitchi Hotel
325,Itoman,JP,59.0,scattered clouds,26.1247,127.6694,Southern Beach Hotel & Resort Okinawa
326,Siderno,IT,51.01,clear sky,38.2779,16.302,Grand Hotel President
329,Nagato,JP,41.0,scattered clouds,34.3833,131.2,いそう庵
330,Pacific Grove,US,55.4,clear sky,36.6177,-121.9166,Lovers Point Inn
331,Cockburn Town,TC,72.63,broken clouds,21.4612,-71.1419,Osprey Beach Hotel
344,Aswan,EG,69.37,broken clouds,24.0934,32.907,Nuba Nile
345,Olafsvik,IS,36.75,overcast clouds,64.8945,-23.7142,Hotel Olafsvik
346,Ahipara,NZ,65.16,overcast clouds,-35.1667,173.1667,Ahipara Holiday Park
347,Alice Springs,AU,69.8,scattered clouds,-23.7,133.8833,Desert Palms Alice Springs
349,La Palma,US,64.99,mist,33.8464,-118.0467,La Quinta Inn & Suites by Wyndham Buena Park
352,Chiredzi,ZW,73.26,light rain,-21.05,31.6667,The Nesbitt Arms
353,Lishui,CN,49.44,scattered clouds,28.4604,119.9103,Bayi Hotel
354,Berlevag,NO,30.2,snow,70.8578,29.0864,Kvitbrakka
355,Presidencia Roque Saenz Pena,AR,72.0,overcast clouds,-26.7852,-60.4388,Hotel Gualok
356,Meadow Lake,US,63.0,broken clouds,34.8014,-106.5436,JKL Inc. R.V Park and Storage
358,Mar Del Plata,AR,69.8,scattered clouds,-38.0023,-57.5575,Gran Hotel Mar del Plata
359,Yeppoon,AU,73.4,broken clouds,-23.1333,150.7333,Villa Mar Colina
361,Manjacaze,MZ,73.56,overcast clouds,-24.7117,33.8828,Hotel Gani
362,Zenzeli,RU,41.54,overcast clouds,45.9241,47.0474,"Gostinitsa ""Zvezdnaya"""
363,Belyy Yar,RU,35.6,clear sky,53.6039,91.3903,Pasportnyy Stol
366,Jedburgh,GB,34.0,snow,55.48,-2.552,Mounthooly Haugh
371,Batemans Bay,AU,66.0,clear sky,-35.7167,150.1833,Batemans Bay Marina Resort
372,Strehaia,RO,39.99,fog,44.6167,23.2,King's Lynn
375,Sandpoint,US,39.0,broken clouds,48.2766,-116.5533,La Quinta Inn by Wyndham Sandpoint
376,Marsh Harbour,BS,63.43,clear sky,26.5412,-77.0636,Abaco Beach Resort
382,Tiznit,MA,66.52,clear sky,29.5833,-9.5,
388,Chardara,KZ,45.54,clear sky,41.2547,67.9692,Жанаргул
391,Karagaylinskiy,RU,28.27,overcast clouds,54.172,86.5521,
393,Hirschaid,DE,48.0,broken clouds,49.8194,10.9908,CENTER HOTEL DRIVE INN
396,Kui Buri,TH,72.9,few clouds,12.0828,99.8543,ริสต้า รีสอร์ท
397,Vung Tau,VN,73.99,clear sky,10.345999999999998,107.0843,Seaside Resort
398,Lashio,MM,49.55,clear sky,22.9333,97.75,Hotel CF Lashio - Burmese Only
403,Colares,PT,57.99,scattered clouds,38.7992,-9.4469,Arribas Sintra Hotel
405,Linxia,CN,28.99,overcast clouds,35.6003,103.2064,GreenTree Inn Linxia Autonomous Prefecture Linxia Oxford River Avenue Express Hotel
407,Tongchuan,CN,34.34,overcast clouds,35.0806,109.0897,Tongchuan Hotel
413,Coos Bay,US,46.99,broken clouds,43.3665,-124.2179,Best Western Holiday Hotel
414,Kasongo-Lunda,CD,72.03,overcast clouds,-6.4667,16.8167,
416,Mahon,ES,55.4,broken clouds,39.8885,4.2658,ARTIEM Capri
418,Panzhihua,CN,42.01,clear sky,26.5851,101.7128,Electric Power Hotel
427,Great Yarmouth,GB,46.4,broken clouds,52.6083,1.7305,Comfort Hotel Great Yarmouth
428,Guerrero Negro,MX,70.48,overcast clouds,27.9769,-114.0611,"Casa Laguna, Bed & Breakfast"
429,Corinto,GR,50.0,few clouds,37.9407,22.9573,Ephira Hotel
430,Tuatapere,NZ,50.85,scattered clouds,-46.1333,167.6833,Ron and Tony's Bed & Breakfast
432,Yuncheng,CN,35.33,overcast clouds,35.0231,110.9928,晋州快捷酒店
435,Riyadh,SA,69.8,clear sky,24.6877,46.7219,InterContinental Riyadh
437,Dharchula,IN,46.35,clear sky,29.85,80.5333,Mahara Hotel
439,Zaltan,LY,63.07,clear sky,32.946999999999996,11.8665,زلطن الشرقية
440,Pyinmana,MM,59.67,clear sky,19.7333,96.2167,"Win (Computer, Copier, Digital Stamp, Invitation Card, Trophy) Shop"
441,Ngunguru,NZ,66.0,broken clouds,-35.6167,174.5,Pacific Rendezvous Motel Resort
442,San Francisco,US,57.2,broken clouds,37.7749,-122.4194,The Clift Royal Sonesta Hotel
444,Bo Rai,TH,70.36,scattered clouds,12.5728,102.5371,Baiboon Resort
445,Rockhampton,AU,73.4,broken clouds,-23.3833,150.5,Mercure Rockhampton
449,Nantucket,US,35.6,broken clouds,41.2835,-70.0995,Jared Coffin House
452,Luancheng,CN,28.4,clear sky,37.8792,114.6517,Shell Hebei Shijiazhuang Luancheng Xinyuan Road Hotel
453,Mandapeta,IN,63.9,clear sky,16.8667,81.9333,Sri satyanarayana vilas kokas Lodge
454,Shediac,CA,39.0,overcast clouds,46.2198,-64.5411,Auberge Gabrièle (Hôtel & Restaurant)
455,Atyrau,KZ,28.4,mist,47.1167,51.8833,River Palace Hotel
461,Wanning,CN,67.71,scattered clouds,18.8003,110.3967,Paradise Hotel
463,Alamosa,US,51.8,clear sky,37.4695,-105.87,Best Western Alamosa Inn
464,Dingle,PH,73.98,broken clouds,10.9995,122.6711,SEGAYA PROPERTY
465,Sekoma,BW,69.73,light rain,-24.4,23.8833,
466,Marzuq,YE,57.87,clear sky,14.4,46.4667,
468,Constitucion,CL,71.83,clear sky,-35.3333,-72.4167,Hotel Boutique Las Azucenas
472,Oktyabrskoye,RU,33.8,overcast clouds,43.0645,44.7417,Prolesok Mini-hotel
475,Chapais,CA,26.6,overcast clouds,49.7834,-74.8492,Hôtel Opémiska
476,Irbil,IQ,48.2,clear sky,36.1926,44.0106,Erbil International Hotel
477,Bowen,AU,71.6,scattered clouds,-20.0167,148.2333,Castle Motor Lodge Motel
481,Faya,SA,59.0,clear sky,18.3851,42.4509,مقبرة ال مجمل
482,Jasper,US,62.6,clear sky,37.2001,-94.3502,Guest House Motel
484,Alandur,IN,73.4,mist,13.0025,80.2061,Hilton Chennai
485,Shubarshi,KZ,27.91,overcast clouds,48.5872,57.1869,
486,Barcelos,PT,53.6,few clouds,41.5388,-8.6151,Hotel Do Terço
487,Turkmenabat,TM,41.0,smoke,39.0733,63.5786,Hotel Yupek Yoly
488,Rock Springs,US,30.2,light snow,41.5875,-109.2029,Homewood Suites by Hilton Rock Springs
492,Ramnagar,IN,57.87,scattered clouds,29.4,79.1167,Leisure Vacation Myrica Hotel
493,Kawambwa,ZM,64.87,light rain,-9.7915,29.0791,"Uphill Country Lodge, Kawambwa"
494,Craig,US,44.6,overcast clouds,40.5153,-107.5464,Candlewood Suites Craig-Northwest
495,Martin,US,66.0,clear sky,27.0837,-80.4164,
496,Aryanah,TN,55.4,few clouds,36.8601,10.1934,فندق تونس الكبير
498,Dawei,MM,73.27,clear sky,14.0833,98.2,Hotel Dawei
499,Khani,GE,41.0,clear sky,41.9563,42.9566,კურორტი ზეკარი/Resort Zekari
500,Qui Nhon,VN,69.01,broken clouds,13.7667,109.2333,Khách sạn Hải Âu Quy Nhơn - Seagull Hotel
505,Bjornevatn,NO,26.6,light snow,69.6672,29.9847,Snowhotel Kirkenes & Gamme Northern Lights Cabins
507,Arlit,NE,70.34,clear sky,18.7369,7.3853,Case de Passage De la Prefecture
508,Keti Bandar,PK,69.08,clear sky,24.1447,67.4497,Haji laloo memon house
509,Chipinge,ZW,68.31,overcast clouds,-20.1883,32.6236,Chipinge Breeze Lodge
512,Sale,MA,57.0,broken clouds,34.0389,-6.8166,Hôtel Mercure Rabat Sheherazade
514,Laguna,US,55.99,overcast clouds,38.421,-121.4238,Holiday Inn Express & Suites Elk Grove Central - Hwy 99
515,Halifax,CA,46.0,scattered clouds,44.6453,-63.5724,Hotel Halifax
517,Fukue,JP,52.36,broken clouds,32.6881,128.8419,Goto Guesthouse Utojuku & SA Car Rental
521,Truro,GB,48.2,clear sky,50.2653,-5.0544,Mannings Hotel
524,Coquimbo,CL,66.2,clear sky,-29.9533,-71.3436,Hotel San Juan
525,Matara,LK,74.75,overcast clouds,5.9485,80.5353,Amaloh Boutique Resort
526,Kaohsiung,TW,64.0,mist,22.6163,120.3133,Kindness Hotel
532,Dakar,SN,69.8,clear sky,14.6937,-17.4441,Novotel Dakar
534,Kalaikunda,IN,57.49,clear sky,22.35,87.25,Atithi Guest House
536,Bilma,NE,67.98,clear sky,18.6853,12.9164,Expeditions Ténére voyages
537,Cyangugu,RW,62.04,overcast clouds,-2.4846,28.9075,Umucyo Lodge
538,Lishan,CN,44.04,scattered clouds,31.8576,113.2951,Hongdu Hotel
541,Ketchikan,US,39.2,light rain,55.3422,-131.6461,Snows Cove Lodge
542,San Jose,US,57.99,few clouds,37.3394,-121.895,The Westin San Jose
543,Springfield,US,55.99,clear sky,37.2153,-93.2982,Best Western Route 66 Rail Haven
545,Flinders,AU,64.0,few clouds,-34.5833,150.8552,Shellharbour Resort & Conference Centre
546,Emba,KZ,26.91,overcast clouds,48.8264,58.1442,
549,Salalah,OM,69.8,clear sky,17.0151,54.0924,HAMDAN PLAZA HOTEL SALALAH
551,Nago,JP,59.0,few clouds,26.5881,127.9761,Hotel Yugaf Inn Okinawa
552,Bereda,ES,48.99,overcast clouds,43.2686,-7.5406,Pazo de Verdes
553,Marsa Matruh,EG,60.8,clear sky,31.3525,27.2453,Beau Site
554,Kumluca,TR,59.4,scattered clouds,36.3703,30.2869,TurkuazKöy
556,Ixtapa,MX,73.4,clear sky,20.7,-105.2,Container Inn Puerto Vallarta
557,Mount Gambier,AU,57.2,overcast clouds,-37.8333,140.7667,Commodore on the Park
558,Balclutha,NZ,55.0,broken clouds,-46.2339,169.75,Hotel South Otago
561,Namanyere,TZ,60.48,few clouds,-7.5167,31.05,Manyovu Lodge
562,Redlands,US,69.8,scattered clouds,34.0556,-117.1825,Dynasty Suites Redlands
564,Ejea De Los Caballeros,ES,51.8,few clouds,42.1263,-1.1372,Hotel Ciudad De Ejea
568,Pervomayskiy,RU,32.0,overcast clouds,53.2485,40.2871,
570,Lata,PT,57.0,overcast clouds,40.1629,-8.3327,Casa Maquia
573,Ushibuka,JP,48.22,clear sky,32.1906,130.0228,Hotei
574,Ukiah,US,48.99,mist,39.1502,-123.2078,Hampton Inn Ukiah
575,Grindavik,IS,37.4,overcast clouds,63.8424,-22.4338,Northern Light Inn & Max's Restaurant
576,Seminole,US,59.0,clear sky,28.7086,-81.2081,WHITNEY-WOLCOTT HOUSE ON LAKE CHARM
578,Jalu,LY,58.17,clear sky,29.0331,21.5482,صاحبة الفخامة
580,Ratnagiri,IN,74.53,clear sky,16.9833,73.3,Hotel Landmark
582,Dickinson,US,69.01,broken clouds,29.4608,-95.0513,Hampton Inn & Suites Houston/League City
583,Socorro,US,73.4,broken clouds,31.6546,-106.3033,guarderia imss papalote
585,Copiapo,CL,68.0,clear sky,-27.3667,-70.3333,Antay Casino Hotel
586,Doha,QA,64.4,clear sky,25.2867,51.5333,Doha Marriott Hotel
589,Necochea,AR,73.99,clear sky,-38.5473,-58.7368,dyd -mar Hotel
593,Talcahuano,CL,66.2,clear sky,-36.7167,-73.1167,Hotel Terramar
595,Vila,PT,46.0,overcast clouds,42.0304,-8.1588,Hotel Castrum Villae by Walk Hotels
597,Choszczno,PL,37.0,moderate rain,53.169,15.4205,Karczma Zbójnicka
599,Baker City,US,37.4,light snow,44.7749,-117.8344,Bridge Street Inn
600,Xinyang,CN,41.94,clear sky,32.1228,114.0656,Jinjiang Inn Style Xinyang Dongfanghong Avenue Culture Center
602,Harrismith,ZA,57.38,light rain,-28.2728,29.1295,Sir Harry's Estate
603,Tehri,IN,49.68,scattered clouds,30.3833,78.4833,The Reindeer Resort Kanatal
604,Bloemfontein,ZA,64.4,overcast clouds,-29.1211,26.214000000000002,Protea Hotel by Marriott Bloemfontein
607,Benghazi,LY,61.25,clear sky,32.1167,20.0667,Tibesti Hotel
608,Te Anau,NZ,48.25,broken clouds,-45.4167,167.7167,Kingsgate Hotel Te Anau
609,Surin,TH,64.99,clear sky,14.8818,103.4936,One Fu Hotel
613,Gushikawa,JP,59.0,few clouds,26.3544,127.8686,Kirari Guest House
614,Atar,MR,72.97,clear sky,20.5169,-13.0499,Oumou Elghoura
617,Westport,US,37.0,overcast clouds,41.1415,-73.3579,Norwalk Inn
619,Dali,CN,43.14,clear sky,25.7,100.1833,Dali Travelling With Hostel
621,Ballina,AU,64.4,scattered clouds,-28.8667,153.5667,Ramada Hotel & Suites by Wyndham Ballina Byron
623,Marawi,PH,73.99,overcast clouds,7.9986,124.2928,Derogongan Residence
627,Ucluelet,CA,43.0,scattered clouds,48.9329,-125.5528,Black Rock Oceanfront Resort
628,Payo,ID,72.32,overcast clouds,-3.7508,103.6372,Mess keban agung
629,Elhovo,BG,48.2,fog,42.1667,26.5667,Slavey Homestay
630,Brunico,IT,33.01,light snow,46.7958,11.9364,Hotel Post
632,Okaihau,NZ,66.0,overcast clouds,-35.3167,173.7833,Macadamia Farm
633,Bahar,IR,40.03,broken clouds,34.9072,48.4414,نمایندگی سایپا اسدی 20406
634,Calvinia,ZA,69.19,clear sky,-31.4707,19.776,Die Lemoenhuis
635,Baturaja,ID,72.55,overcast clouds,-4.1333,104.1667,"HOTEL Sekar Sunja, Baturaja Timur, Ogan Komering Ulu"
636,Hailey,US,33.8,few clouds,43.5196,-114.3153,Wood River Inn & Suites
637,Otorohanga,NZ,69.01,few clouds,-38.1833,175.2,Otorohanga Kiwi Holiday Park
638,Balancan,MX,73.4,scattered clouds,17.8,-91.5333,Hotel Balam Ku
639,Charters Towers,AU,72.09,scattered clouds,-20.1,146.2667,Cattleman's Rest Motor Inn
644,Mwinilunga,ZM,59.59,broken clouds,-11.7358,24.4293,Kwakuwahi Lodge
645,Semirom,IR,34.72,clear sky,31.4167,51.5667,سوئیت سام آرام Motel
646,Bose,IT,44.01,broken clouds,45.4612,8.0137,Locanda Borgo Antico
647,Antofagasta,CL,73.0,scattered clouds,-23.65,-70.4,Holiday Inn Express Antofagasta
650,Rochester,US,34.0,broken clouds,43.1548,-77.6156,Hyatt Regency Rochester
651,Florence,IT,55.4,broken clouds,43.7667,11.25,Italiana Hotels Florence
652,Dalby,AU,62.01,clear sky,-27.1833,151.2667,Kobbers Motor Inn Dalby
657,Vila Do Maio,CV,71.6,clear sky,15.1333,-23.2167,Residence 'I Delfini'
659,Maine-Soroa,NE,73.92,clear sky,13.2114,12.0241,
662,Gondanglegi,ID,74.07,broken clouds,-7.7479,112.0132,Gg. Munasir Homestay
664,Carlisle,US,37.0,overcast clouds,40.2015,-77.1889,Fairfield Inn & Suites by Marriott Carlisle
665,Norfolk,US,36.0,overcast clouds,42.1668,-71.2495,Residence Inn by Marriott Boston Norwood/Canton
666,Burnie,AU,59.0,scattered clouds,-41.0667,145.9167,Beachfront Voyager Motor Inn
667,Tabas,IR,44.6,clear sky,33.5959,56.9244,شرکت معماری مهراز شایگان آراد
668,Ayr,GB,35.6,snow,55.4627,-4.6339,Mercure Ayr Hotel
670,Villazon,BO,64.85,broken clouds,-22.0866,-65.5942,La Candelaria
675,Jiexiu,CN,30.51,broken clouds,37.0244,111.9125,IU Hotel Jinzhong Yuhua Road
676,Emilio Carranza,MX,73.18,clear sky,19.9711,-96.6114,casa carranza
677,Kepno,PL,45.0,light rain,51.2784,17.9891,Gawra
678,Margate,GB,46.0,overcast clouds,51.3813,1.3862,Premier Inn Margate hotel
679,Atherton,GB,44.01,broken clouds,53.5237,-2.4935,The Mercury Motel
681,Ruwi,OM,66.2,clear sky,23.5996,58.5507,Al Falaj Hotel
682,Port Shepstone,ZA,74.93,overcast clouds,-30.7414,30.455,My Den Beachfront B&B And Self-Catering
683,Rabo De Peixe,PT,53.6,few clouds,37.8,-25.5833,Quinta das Giestas
685,Russell,US,55.4,clear sky,32.3502,-85.1999,Macs
687,Port Pirie,AU,69.8,light rain,-33.1833,138.0167,John Pirie Motor Inn
689,Camana,PE,74.37,overcast clouds,-16.6228,-72.7111,Hostal Morales
